OBJECTID;CODIGO;POLARIS;CODIGOS_POLARIS;nombre;CATEGORIA;TECNOLOGIA;ESTADO;FECHA_INSTALACION;altitud;latitud;longitud;Barrancabermeja
9;2502700206;2502700206;1174;CECILIA [2502700206];Limnigráfica;Automática con Telemetría;Activa;2021-05-14;24;8.46361111;-75.03166667;219.5908997
59;26135320;26135320;118;NEVADO SANTA ISABEL  - AUT [26135320];Climática Principal;Automática con Telemetría;En Mantenimiento;2005-10-17;4757;4.80261111;-75.38047222;295.8401959
69;23125170;23125170;183;SAN CAYETANO - AUT [23125170];Climática Principal;TEST005;Activa;2004-12-01;2807;5.33333333;-74.01666667;178.9772167
75;21195190;21195190;135;PASCA - AUT [21195190];Agrometeorológica;TEST005;En Mantenimiento;2005-08-26;2256;4.31011111;-74.31175;296.1518241
85;21255160;21255160;125;HACIENDA PAJONALES [21255160];Agrometeorológica;Automática con Telemetría;En Mantenimiento;2005-10-18;277;4.76072222;-74.83425;267.7758379
89;26155240;26155240;147;PNN NEVADOS - AUT [26155240];Climática Principal;Automática con Telemetría;En Mantenimiento;2007-08-24;3641;4.85944444;-75.38241667;290.9921515
91;21206980;21206980;207;SANTA CRUZ DE SIECHA  - AUT [21206980];Agrometeorológica;TEST005;En Mantenimiento;2005-11-08;3100;4.78427778;-73.87080556;237.7282381
95;21255170;21255170;115;MURILLO - AUT [21255170];Climática Principal;Automática con Telemetría;En Mantenimiento;2005-10-21;2978;4.87055556;-75.17327778;276.2982122
96;35085070;35085070;189;SANTA MARIA - AUT [35085070];Climática Principal;Automática con Telemetría;En Mantenimiento;2005-03-10;1300;4.84125;-73.25669444;237.796507
97;35025080;35025080;146;PNN CHINGAZA - AUT [35025080];Climática Principal;TEST005;En Mantenimiento;2007-12-06;3205;4.661;-73.82733;251.1498644
99;35237030;35237030;1501;TRINIDAD PAUTO - AUT [35237030];Limnigráfica;TEST005;Activa;2016-12-15;178;5.41438889;-71.66836111;285.992582
100;21209920;21209920;190;SANTA ROSITA - AUT [21209920];Limnigráfica;TEST005;En Mantenimiento;2005-05-19;2618;5.19225;-73.77905556;192.3493989
101;35215020;35215020;1507;AEROPUERTO YOPAL - AUT [35215020];Climática Principal;TEST005;Activa;2005-11-17;325;5.32044444;-72.3875;234.2401636
102;35075080;35075080;154;PARAMO RABANAL - AUT [35075080];Climática Principal;Automática con Telemetría;En Mantenimiento;2005-03-13;3335;5.39239;-73.56278;171.6475229
104;26155220;26155220;237;VILLAMARIA - AUT [26155220];Climática Principal;Automática con Telemetría;En Mantenimiento;2004-06-14;1906;5.04866667;-75.51388889;284.5176145
105;35085060;35085060;247;ZETAQUIRA - AUT [35085060];Climática Principal;Automática con Telemetría;En Mantenimiento;2004-12-12;1436;5.29494444;-73.16994444;192.4842188
107;23017040;23017040;1114;ESPERANZA LA [23017040];Limnigráfica;TEST005;Activa;1988-09-15;550;5.20616667;-74.91372222;229.4405116
108;35085080;35085080;42;LA CAPILLA - AUT [35085080];Climática Principal;Automática con Telemetría;En Mantenimiento;2005-03-08;1917;5.09919444;-73.436;205.8110678
109;23065180;23065180;239;VILLETA - AUT [23065180];Climática Principal;Automática con Telemetría;Activa;2004-12-10;878;5.01686111;-74.47097222;225.7885902
110;35075070;35075070;48;CHINAVITA - AUT [35075070];Agrometeorológica;Automática con Telemetría;En Mantenimiento;2005-03-06;2006;5.21639;-73.34697;195.1551784
112;35165000;35165000;1607;EL TUNEL [35165000];Climática Ordinaria;Automática con Telemetría;Activa;2016-12-31;30;5.57497222;-72.941;175.3934487
113;23035030;23035030;126;BASE PALANQUERO  - AUT [23035030];Climática Principal;TEST005;En Mantenimiento;2005-11-03;170;5.49286111;-74.658;187.4480553
115;35160010;35160010;1605;POTRERITO [35160010];Pluviométrica;TEST005;En Mantenimiento;2016-12-31;347;5.47758333;-72.94861111;184.2747299
116;35095120;35095120;12;AQUITANIA - AUT [35095120];Climática Principal;Automática con Telemetría;En Mantenimiento;2004-12-06;3026;5.55663;-72.88175;180.5782972
117;23037010;23037010;165;PUERTO SALGAR - AUT [23037010];Limnigráfica;TEST005;En Mantenimiento;1936-01-15;186;5.46966667;-74.66216667;189.8716773
118;35195060;35195060;1512;TOQUILLA - AUT [35195060];Climática Ordinaria;TEST005;Activa;2016-12-15;2950;5.52361111;-72.79097222;189.176966
120;35217060;35217060;1505;PLAYON EL [35217060];Limnigráfica;TEST005;Activa;2016-12-15;271;5.5405;-72.23172222;228.738794
121;23125160;23125160;174;SAN PABLO DE BORBUR  - AUT [23125160];Climática Principal;Automática con Telemetría;En Mantenimiento;2004-12-14;742;5.64702778;-74.07130556;146.1358352
122;23065190;23065190;169;QUEBRADA NEGRA - AUT [23065190];Climática Principal;Automática con Telemetría;En Mantenimiento;2005-10-06;1107;5.13761111;-74.48125;213.741956
123;26207080;26207080;462;BOLOMBOLO [26207080];Limnigráfica;Automática con Telemetría;Activa;1971-10-15;1750;5.97;-75.84;253.2089321
124;36015020;36015020;208;EL DIAMANTE - AUT [36015020];Climática Principal;Automática con Telemetría;En Mantenimiento;2005-11-19;160;5.81619444;-71.41983333;286.8881256
125;26185030;26185030;90;JERICO - AUT [26185030];Climática Principal;Automática con Telemetría;Suspendida;2004-11-28;2313;5.79916667;-75.78952778;256.8516348
126;24035360;24035360;200;SOCHA - AUT [24035360];Climática Principal;Automática con Telemetría;Activa;2004-12-10;2503;5.98541667;-72.99702778;134.6015969
127;24035410;24035410;201;SOGAMOSO - AUT [24035410];Meteorológica Especial;Automática con Telemetría;Activa;2007-12-06;2495;5.72647;-72.92067;162.5751565
128;35215030;35215030;1510;Pisba - Aut [35215030];Climática Ordinaria;Automática con Telemetría;Activa;2016-12-15;1482;5.72055556;-72.48847222;194.3783363
129;24035430;24035430;220;TUNGUAVITA - AUT [24035430];Agrometeorológica;TEST005;Activa;2004-12-15;2521;5.74583;-73.11636;149.3517736
130;35160020;35160020;1604;LLANO ALARCON [35160020];Pluviométrica;Automática con Telemetría;Activa;2016-12-31;339;5.59972222;-72.91347222;174.6753354
131;24025090;24025090;111;MOGOTES - AUT [24025090];Agrometeorológica;TEST005;Activa;2004-10-25;1673;6.47;-72.96888889;101.5007171
132;23057140;23057140;1159;SAN MIGUEL - AUT [23057140];Limnigráfica;TEST005;Activa;1974-08-15;176;5.73102778;-74.72583333;170.2638918
133;26185050;26185050;188;SANTA BARBARA - AUT [26185050];Climática Principal;Automática con Telemetría;En Mantenimiento;2004-11-30;1680;5.85958333;-75.55627778;231.1457339
138;23127020;23127020;1122;PUERTO ARAUJO - AUT [23127020];Limnigráfica;TEST005;En Mantenimiento;1965-10-15;92;6.52555556;-74.08583333;57.45667221
140;16027300;16027300;159;PUENTE CAPIRA - AUT [16027300];Limnigráfica;TEST005;En Mantenimiento;2004-11-15;1320;7.53719444;-72.77113889;128.1789542
142;24035370;24035370;66;EL ESPINO - AUT [24035370];Climática Principal;Automática con Telemetría;Activa;2005-11-19;3510;6.50675;-72.45275;152.1593471
143;27015290;27015290;124;PAJARITO - AUT [27015290];Climática Principal;Automática con Telemetría;En Mantenimiento;2005-11-17;1952;6.28633333;-75.61279167;216.669502
144;23087210;23087210;231;CANTERAS - AUT [23087210];Limnigráfica;TEST005;En Mantenimiento;1973-07-15;1274;6.27608333;-74.67330556;124.1007975
147;24055070;24055070;176;SAN  VICENTE DE CHUCURI  - AUT [24055070];Agrometeorológica;Automática con Telemetría;Activa;2004-10-25;1093;6.82339;-73.47206;34.27918941
148;24035390;24035390;130;PARAMO ALMORZADERO  - AUT [24035390];Climática Principal;Automática con Telemetría;Activa;2004-10-25;3733;6.94539;-72.69633;117.7396172
149;27015280;27015280;133;PARAMO BELMIRA - AUT [27015280];Climática Principal;Automática con Telemetría;En Mantenimiento;2004-11-23;3221;6.63202778;-75.64444444;210.6141322
150;24055080;24055080;243;VIZCAINA LA LIZAMA  - AUT [24055080];Agrometeorológica;Automática con Telemetría;Activa;2004-10-25;94;6.98297;-73.70489;8.442324743
151;37015030;37015030;24;BERLIN - AUT [37015030];Agrometeorológica;Automática con Telemetría;En Mantenimiento;2008-08-21;3306;7.187;-72.8685;102.6154715
152;37057020;37057020;5;ALCARAVAN  AUT [37057020];Limnigráfica;TEST005;En Mantenimiento;1997-11-15;162;7.035;-71.41638889;259.3071831
153;25017010;25017010;112;MONTELIBANO - AUT [25017010];Limnimétrica;TEST005;En Mantenimiento;1973-04-15;40;7.98797222;-75.41733333;216.6747722
157;16015120;16015120;229;UNIVERSIDAD DE PAMPLONA  - AUT [16015120];Agrometeorológica;Automática con Telemetría;En Mantenimiento;2004-10-13;2362;7.36094444;-72.66605556;129.9413293
158;27037030;27037030;1106;SAN JUAN NECHI - AUT [27037030];Limnigráfica;Automática con Telemetría;En Mantenimiento;1976-05-15;180;7.475;-74.92083333;141.2172782
159;25017020;25017020;187;SAN PEDRO - AUT [25017020];Limnimétrica;TEST005;En Mantenimiento;1989-05-15;50;7.85388889;-75.70972222;237.8145474
160;16017020;16017020;1113;LA DONJUANA - AUT [16017020];Limnigráfica;TEST005;Activa;1972-08-15;730;7.68797222;-72.60547222;152.5189257
163;25025360;25025360;91;AEROPUERTO LAS FLORES  - AUT [25025360];Climática Principal;TEST005;En Mantenimiento;2013-05-05;34;9.04633333;-73.97083333;234.7165661
167;25025002;25025002;1158;LOS ALAMOS - AUT [25025002];Climática Principal;TEST005;Activa;2013-05-05;25;9.30405556;-74.27363889;268.0659836
169;25025380;25025380;1942;SAN BENITO - AUT [25025380];Climática Ordinaria;TEST005;Activa;2014-11-14;20;9.16388889;-75.04472222;284.2239962
174;23217080;23217080;461;GAMARRA - AUT [23217080];Limnigráfica;TEST005;Activa;2011-12-12;40;8.28428611;-73.75338889;149.3671203
180;25027760;25027760;1945;BEIRUT - AUT [25027760];Limnimétrica;Automática con Telemetría;Activa;2014-11-13;26;8.30222222;-75.13388889;213.9941869
182;25025030;25025030;1943;AYAPEL - AUT [25025030];Climática Ordinaria;Automática con Telemetría;Activa;2014-12-11;20;8.29506389;-75.16455556;215.8477239
188;25020600;25020600;1950;SAJONIA HACIENDA - AUT [25020600];Pluviométrica;TEST005;Activa;2014-03-10;100;8.48972222;-75.60138889;265.9958667
189;13057010;13057010;1128;NUEVA COLOMBIA [13057010];Limnimétrica;TEST005;En Mantenimiento;1990-06-15;20;8.49944444;-75.97861111;299.579018
190;25020430;25020430;1946;TREMENTINO - AUT [25020430];Pluviométrica;TEST005;En Mantenimiento;2014-03-10;19;8.71666667;-75.76666667;296.1887035
198;35167020;35167020;1602;CRIADERO -AUT [35167020];Limnigráfica;Automática con Telemetría;Activa;2016-12-31;3025;5.557;-72.88047222;180.6201002
199;35167000;35167000;1603;CORPOBOYACA - SANTA INES -AUT [35167000];Limnigráfica;TEST005;Activa;2016-12-31;3041;5.545;-72.88411111;181.5225342
200;35217090;35217090;1503;LABRANZA GRANDE AUT [35217090];Limnigráfica;TEST005;Activa;2016-12-15;1125;5.56691667;-72.58355556;199.4321244
213;23155030;23155030;1194;AEROPUERTO YARIGUIES [23155030];Sinóptica Principal;TEST005;Activa;1931-07-15;126;7.02638889;-73.80861111;11.53158712
214;26155110;26155110;1192;AEROPUERTO LA NUBIA [26155110];Climática Principal;TEST005;Activa;1968-06-15;2104;5.02977778;-75.46991667;282.7732799
224;35235050;35235050;1511;TAMARA - AUT [35235050];Climática Ordinaria;TEST005;Activa;2017-08-23 9:31;117;5.81858333;-72.16677778;215.122528
233;35037100;35037100;157;PUENTE ABADIA - AUT [35037100];Limnigráfica;TEST005;En Mantenimiento;1968-04-15;523;4.23533333;-73.63536111;298.4105967
419;26247010;26247010;262;PALMIRA HACIENDA  - AUT [26247010];Limnigráfica;Automática con Telemetría;En Mantenimiento;1971-09-15;80;7.79677778;-75.37252778;201.7306689
490;16027310;16027310;1161;TERMOTASAJERO - AUT [16027310];Limnigráfica;Automática con Telemetría;Suspendida;2004-10-15;255;7.83333333;-72.63333333;159.4387367
495;25010010;25010010;1175;PUERTO LIBERTADOR [25010010];Pluviométrica;Convencional;Activa;1989-05-15;55;7.89027778;-75.68;236.6166754
574;16015501;16015501;1998;AEROPUERTO CAMILO DAZA - AUT [16015501];Sinóptica Principal;TEST005;Activa;2015-06-10;306;7.93028;-72.50917;176.8153068
603;23127060;23127060;386;SANTA ROSA  - AUT [23127060];Limnimétrica;TEST005;En Mantenimiento;1975-04-15;154;6.29194444;-74.09833333;79.95453529
620;23147020;23147020;2146;PUENTE FERROCARRIL [23147020];Limnigráfica;Convencional;Activa;1971-08-15;90;6.77361111;-73.935;25.92919647
636;11115040;11115040;2127;MUSINGA [11115040];Climática Ordinaria;TEST005;Activa;1984-08-15;1396;6.77797222;-76.20333333;270.2883847
645;23087670;23087670;2140;RIOTEX [23087670];Limnigráfica;Automática sin Telemetría;Activa;1992-03-15;2114;6.18125;-75.36638889;195.8079512
664;24035250;24035250;338;CHITA  - AUT [24035250];Climática Ordinaria;TEST005;En Mantenimiento;1970-12-15;2961;6.18778;-72.46556;165.284049
693;23125120;23125120;2139;CIMITARRA [23125120];Climática Ordinaria;Convencional;Activa;1975-04-15;198;6.30861111;-73.95222222;72.09202523
705;24015300;24015300;73;VILLA DE LEIVA  - AUT [24015300];Climática Principal;TEST005;En Mantenimiento;1979-12-15;2174;5.64326;-73.51774;145.0450026
762;23085080;23085080;463;GRANJA EXPERIMENTAL EL NUS  - AUT [23085080];Climática Principal;Automática con Telemetría;Activa;1972-05-15;859;6.48358333;-74.83669444;128.6657722
778;24055040;24055040;2136;PALMAR EL [24055040];Climática Ordinaria;Convencional;Activa;1984-02-15;940;6.54972222;-73.292;67.03249114
790;23195090;23195090;242;VIVERO SURATA  - AUT [23195090];Climática Ordinaria;TEST005;En Mantenimiento;1968-09-15;1791;7.36583;-72.9875;98.01822008
802;23127050;23127050;2145;BARREDERO FINCA [23127050];Limnimétrica;Convencional;Activa;1974-08-15;90;6.64555556;-74.06527778;46.11007478
817;24030950;24030950;103;MALAGA 2 [24030950];Pluviográfica;TEST005;En Mantenimiento;1973-12-15;2237;6.70638889;-72.72972222;116.783083
830;11110010;11110010;2128;NORMAL SANTA TERESA [11110010];Pluviométrica;TEST005;Activa;1969-01-15;1370;6.76333333;-76.13361111;262.706904
856;11027030;11027030;267;EL SIETE - AUT [11027030];Limnigráfica;Automática con Telemetría;En Mantenimiento;1979-12-15;2300;5.862;-76.15205556;289.6200415
865;23115010;23115010;1195;PUERTO BOYACA [23115010];Climática Ordinaria;Convencional;Activa;1974-08-15;350;5.97833333;-74.56666667;137.9523352
884;35235010;35235010;1508;CARDON EL [35235010];Climática Ordinaria;TEST005;Activa;1974-05-15;3590;6.01166667;-72.52927778;170.1149992
924;35190070;35190070;1199;SAN JOSE [35190070];Pluviométrica;Convencional;Activa;1974-11-15;190;5.09191667;-72.45858333;249.364843
990;23087660;23087660;17;PUENTE LA FERIA  - AUT [23087660];Limnigráfica;Automática con Telemetría;Activa;1992-05-15;2100;6.17266667;-75.33786111;193.3669267
1029;26167070;26167070;399;IRRA  - AUT [26167070];Limnigráfica;TEST005;En Mantenimiento;1961-11-15;766;5.26830556;-75.66419444;279.5369809
1031;35197190;35197190;213;PAJARITO - AUT [35197190];Limnigráfica;TEST005;En Mantenimiento;1999-05-15;770;5.28347222;-72.70194444;216.7340252
1100;21205791;21205791;2000;ELDORADO CATAM - AUT [21205791];Sinóptica Principal;TEST005;Activa;2002-10-31;2547;4.70558333;-74.15066667;249.8523367
1125;23087150;23087150;286;PUENTE REAL  - AUT [23087150];Limnigráfica;Automática con Telemetría;Activa;1973-05-15;820;6.14347222;-75.37994444;198.9683072
1204;35195050;35195050;1197;CORINTO [35195050];Climática Ordinaria;Convencional;Activa;1984-06-15;1550;5.40727778;-72.71722222;204.3964171
1215;35217010;35217010;47;PUENTE YOPAL  - AUT [35217010];Limnigráfica;TEST005;Activa;1974-11-15;343;5.369;-72.41372222;228.2757143
1303;21205670;21205670;2115;FLORIDA LA [21205670];Climática Principal;TEST005;Activa;1970-11-15;1915;4.77088889;-74.43763889;250.3365352
1332;35020300;35020300;1170;GUTIERREZ [35020300];Climática Principal;Automática con Telemetría;Activa;1984-07-15;2300;4.25391667;-74.00269444;297.2299926
1358;35027001;35027001;1147;PLAZA DE FERIAS [35027001];Climática Ordinaria;Automática con Telemetría;Activa;2012-07-21;1670;4.40338889;-73.94055556;280.2123077
1359;35027002;35027002;1155;PARQUE RAFAEL NUNEZ [35027002];Climática Ordinaria;Automática con Telemetría;En Mantenimiento;2012-07-21;1671;4.40741667;-73.9475;279.8237823
1401;35197070;35197070;1198;PUENTE LAS CANAS [35197070];Limnimétrica;Convencional;Activa;1980-07-15;3135;5.58669444;-72.81533333;181.9145568
1402;26155260;26155260;97;SENDERO LAGUNA VERDE  - AUT [26155260];Climática Ordinaria;Automática con Telemetría;En Mantenimiento;2007-12-06;4329;4.84066667;-75.36161111;291.2244774
1599;26157200;26157200;196;SIETECUERALES - AUT [26157200];Limnigráfica;TEST005;En Mantenimiento;2008-12-11;3794;4.86022222;-75.37463889;290.3939578
1601;23087230;23087230;444;PUERTO BELLO  - AUT [23087230];Limnimétrica;TEST005;Activa;1979-06-15;1729;6.21197222;-74.60711111;122.7237528
1822;24017740;24017740;426;PUENTE CHACON  - AUT [24017740];Limnigráfica;TEST005;Activa;1986-04-15;2130;5.67788889;-73.54213889;140.7957041
1823;24035340;24035340;1983;AEROPUERTO A LLERAS C [24035340];Climática Principal;TEST005;Activa;1974-01-15;2500;5.67694444;-72.96791667;164.2417413
1851;35095130;35095130;1129;LAGUNA LA PLAZA [35095130];Climática Principal;Automática con Telemetría;Activa;2010-09-17;4378;6.362;-72.28201667;175.3179207
2005;21206280;21206280;20;ACAPULCO [21206280];Climática Principal;TEST005;En Mantenimiento;1990-02-15;2680;4.64823;-74.32035;259.9162919
2006;35060210;35060210;2123;CLARAVAL [35060210];Climática Principal;TEST005;Activa;1972-02-15;2100;4.65025;-73.64144444;252.5855932
2045;21257070;21257070;212;PUENTE SAN FRANCISCO  - AUT [21257070];Limnigráfica;TEST005;En Mantenimiento;1972-03-15;2875;5.01991667;-74.89088889;245.5424845
2158;23065120;23065120;2122;CABRERA LA [23065120];Climática Principal;TEST005;Activa;1974-09-15;20;5.14155556;-74.13936111;202.2949029
2171;23067050;23067050;2141;GUADUERO [23067050];Limnigráfica;Automática sin Telemetría;Activa;1974-08-15;410;5.19211111;-74.57291667;212.2462477
2333;25017030;25017030;275;PICA PICA  - AUT [25017030];Limnimétrica;TEST005;Activa;1995-08-15;96;8.03;-75.68;243.8897775
2337;25025100;25025100;1188;AEROPUERTO BARACOA [25025100];Climática Principal;Convencional;Activa;1954-01-15;18;9.28194444;-74.84527778;285.7522889
2474;27027060;27027060;304;BRISAS DEL NECHI  - AUT [27027060];Limnigráfica;Automática con Telemetría;En Mantenimiento;1974-12-15;1880;6.93969444;-75.38083333;178.7722709
2581;23195110;23195110;369;LLANO GRANDE  - AUT [23195110];Climática Ordinaria;TEST005;Activa;1971-07-15;777;7.02555556;-73.16722222;66.52426758
2596;16025040;16025040;380;CINERA-VILLA OLGA [16025040];Climática Principal;TEST005;Activa;1965-09-15;96;8.16728;-72.47878;196.5980701
2611;23190440;23190440;2137;NARANJO EL [23190440];Pluviométrica;Convencional;Activa;1971-04-15;825;7.205;-73.29972222;59.28942102
2700;25025190;25025190;143;PLANETA RICA  - AUT [25025190];Climática Ordinaria;TEST005;En Mantenimiento;1973-11-15;90;8.39933333;-75.58372222;258.1375584
2714;23195200;23195200;388;CACHIRI  - AUT [23195200];Climática Ordinaria;TEST005;Activa;1971-06-15;1885;7.47389;-72.99111;104.0355413
2853;13027040;13027040;1940;CANO BRAVO - AUT [13027040];Limnimétrica;TEST005;En Mantenimiento;2017-01-02;24;8.23584722;-74.96043889;195.4598502
2995;24057070;24057070;2135;PUENTE FERROCARRIL [24057070];Limnimétrica;Convencional;Activa;1973-05-15;75;7.10944444;-73.85472222;22.021004
3001;24050070;24050070;2138;PUTANA LA [24050070];Pluviométrica;Convencional;Activa;1973-07-15;150;7.12716667;-73.52055556;34.28054735
3011;23195502;23195502;1996;AEROPUERTO PALONEGRO [23195502];Sinóptica Principal;TEST005;Activa;2005-05-05;1189;7.12147222;-73.18452778;67.13302588
3022;23190560;23190560;2147;SAN RAFAEL [23190560];Pluviométrica;Convencional;Activa;1976-12-15;84;7.57444444;-73.55972222;74.36027405
3094;23180070;23180070;177;SABANA DE TORRES [23180070];Pluviométrica;TEST005;En Mantenimiento;1968-05-15;144;7.39;-73.48944444;58.83551016
3191;25027240;25027240;1172;JEGUA [25027240];Limnimétrica;Convencional;Activa;1968-03-15;20;8.90630556;-74.96594444;255.3048769
3224;2403000114;2403000114;1152;LAS MERCEDES - AUT [2403000114];Pluviométrica;Automática con Telemetría;Activa;2019-07-22;2653;6.5774;-72.479;147.1213155
3230;3502500135;3502500135;1154;GUAYABETAL POLLO OLIMPICO - AUT [3502500135];Meteorológica Especial;Automática con Telemetría;Activa;2019-07-25;1293;4.22553;-73.81481;299.2237584
3233;2403000113;2403000113;1151;LAS CAÑAS - AUT [2403000113];Pluviométrica;Automática con Telemetría;Activa;2019-07-22;3343;6.6058;-72.4836;145.818606
3235;21255090;21255090;2116;ARMERO GRANJA [21255090];Climática Principal;Convencional;Activa;1986-10-14 19:00;321;5;-74.89999167;247.9518809
3236;23197690;23197690;127;PALOGORDO - AUT [23197690];Limnigráfica;TEST005;Activa;1997-10-15;690;6.96916667;-73.13055556;69.89766183
3331;26157170;26157170;55;CONEJERAS2 - AUT [26157170];Limnigráfica;TEST005;En Mantenimiento;2007-12-06;4686;4.82038889;-75.37713889;294.0521657
3409;2403700148;2403700148;1153;PUENTE CASIANO - AUT [2403700148];Limnigráfica;TEST005;Activa;2019-07-22;2607;6.5704;-72.4703;148.2557667
3450;23025040;23025040;2121;ALBANIA [23025040];Climática Ordinaria;Convencional;Activa;1987-04-15;788;5.30110889;-74.91458056;220.8377569
3469;2403500083;2403500083;323;PESCA - AUT [2403500083];Climática Principal;Automática con Telemetría;En Mantenimiento;2017-10-13;2764;5.524;-73.07655;173.1683268
3470;2403500085;2403500085;326;SUSA - AUT [2403500085];Climática Principal;Automática con Telemetría;En Mantenimiento;2017-10-27;2467;6.23262;-72.69197;141.3516903
3496;16037030;16037030;382;PUENTE SARDINATA - AUT [16037030];Limnigráfica;TEST005;En Mantenimiento;1973-03-15;245;8.10361111;-72.79472222;167.7265898
3497;16057040;16057040;385;QUINCE LETRAS - AUT [16057040];Limnigráfica;TEST005;En Mantenimiento;1971-11-15;360;8.54111111;-73.24611111;186.6316337
3498;16047010;16047010;52;PUENTE ABREGO - AUT [16047010];Limnigráfica;TEST005;En Mantenimiento;1971-10-15;1430;8.04333333;-73.08305556;143.7971159
3499;23147040;23147040;371;AYACUCHO - AUT [23147040];Limnimétrica;TEST005;En Mantenimiento;1992-10-15;101;6.85580556;-73.76933333;8.537693908
3500;37027010;37027010;360;PEÑA DE LOS MICOS - AUT [37027010];Limnigráfica;TEST005;En Mantenimiento;1972-10-15;870;7.19697222;-72.42477778;150.5361478
3503;16027120;16027120;1111;SAN JAVIER/PUENTE ZULIA - AUT [16027120];Limnigráfica;TEST005;En Mantenimiento;1958-07-15;270;7.83388889;-72.65027778;158.0212829
3504;2702500107;2702500107;389;ANGOSTURA - AUT   [2702500107];Climática Principal;Automática con Telemetría;Activa;2017-12-25 19:00;1756;6.90055556;-75.32601944;172.7567334
3743;24017590;24017590;365;PUENTE NACIONAL - AUT [24017590];Limnigráfica;TEST005;Activa;1974-02-15;1650;5.87277778;-73.67777778;117.5108049
3756;37017040;37017040;359;PUENTE LOPEZ - AUT [37017040];Limnigráfica;TEST005;Activa;1972-11-15;1862;7.20333333;-72.63388889;128.1293844
3761;2308500071;2308500071;252;RETIRO - AUT [2308500071];Climática Principal;Automática con Telemetría;En Mantenimiento;2017-04-29;2233;6.060275;-75.50951389;215.906263
3763;2621500070;2621500070;250;ITUANGO - AUT [2621500070];Climática Principal;Automática con Telemetría;En Mantenimiento;2017-12-30;1909;7.16143333;-75.76288611;222.3891741
3766;2302500064;2302500064;105;MANZANARES - AUT [2302500064];Climática Principal;Automática con Telemetría;En Mantenimiento;2017-04-23;1979;5.26505556;-75.14305556;239.3998593
3767;1602500063;1602500063;77;MUTISCUA - AUT [1602500063];Climática Principal;Automática con Telemetría;En Mantenimiento;2018-08-26;2680;7.29908889;-72.74576111;119.3080133
3770;2805500075;2805500075;296;CURUMANÍ - AUT [2805500075];Climática Principal;Automática con Telemetría;En Mantenimiento;2016-12-23;67;9.23813889;-73.51291667;256.2569262
3773;2403500082;2403500082;322;SIACHOQUE - AUT [2403500082];Climática Principal;Automática con Telemetría;En Mantenimiento;2017-10-10;2788;5.52478;-73.23377;166.2098708
3775;2401500086;2401500086;336;UNIVERSIDAD PEDAGÓGICA Y TECNOLÓGICA DE COLOMBIA TUNJA - AUT [2401500086];Climática Principal;Automática con Telemetría;En Mantenimiento;2018-04-06;2690;5.55361111;-73.35527778;158.9156266
3776;3508700103;3508700103;134;PUENTE CAMPANA - AUT [3508700103];Limnigráfica;Automática con Telemetría;En Mantenimiento;2018-03-10;475;4.84416667;-73.22303056;238.3880293
3777;2403500084;2403500084;325;MONGUA - AUT [2403500084];Climática Principal;Automática con Telemetría;En Mantenimiento;2017-12-15;2932;5.75802;-72.79485;168.2123448
3778;2403500081;2403500081;321;SOTAQUIRÁ - AUT [2403500081];Climática Principal;Automática con Telemetría;Suspendida;2017-10-25;2549;5.74966111;-73.23492222;143.1586521
3779;2401500080;2401500080;319;PANELAS - AUT [2401500080];Climática Principal;Automática con Telemetría;En Mantenimiento;2017-10-12;3194;5.63438056;-73.38646944;149.3804514
3790;23195040;23195040;117;UNIVERSIDAD INDUSTRIAL SANTANDER [23195040];Climática Principal;Convencional;En Mantenimiento;1957-01-15;118;7.14472222;-73.12222222;74.46835586
3805;2120500050;2120500050;447;PARAMO ALTO - AUT   [2120500050];Climática Principal;Automática con Telemetría;En Mantenimiento;2018-03-17;3226;5.15886;-74.02322;198.1468583
3806;1111500036;1111500036;258;ABRIAQUI - AUT   [1111500036];Climática Principal;Automática con Telemetría;En Mantenimiento;2016-12-22;1946;6.6363;-76.07073333;257.2143705
3811;2301700089;2301700089;433;GUALÍ ALERTAS - AUT   [2301700089];Limnigráfica;TEST005;Activa;2018-03-25;712;5.13427778;-75.06205556;245.3479289
3812;3507500046;3507500046;74;GRANJA GUAYATA - AUT   [3507500046];Climática Principal;Automática con Telemetría;En Mantenimiento;2017-12-18;1580;4.97608;-73.48264;218.4276555
3813;2302500037;2302500037;441;BRASIL - AUT   [2302500037];Climática Principal;Automática con Telemetría;En Mantenimiento;2017-12-12;2376;5.139917;-75.283361;259.9952844
3815;2401700091;2401700091;366;LAS MINAS - AUT   [2401700091];Limnigráfica;TEST005;Activa;2017-12-21;398;6.76988889;-73.22422222;62.11629365
3818;2319500043;2319500043;377;FLORIDABLANCA - AUT   [2319500043];Climática Principal;Automática con Telemetría;Activa;2018-04-11;895;7.0568;-73.0906;75.44238753
3819;2403500041;2403500041;64;DUITAMA - AUT  [2403500041];Climática Principal;TEST005;Activa;2017-10-16;2492;5.78755;-73.05155;148.9708579
3822;2401500052;2401500052;364;PUENTE GUILLERMO - AUT  [2401500052];Climática Principal;Automática con Telemetría;Activa;2017-10-31;2246;5.79641667;-73.72666667;125.6384205
3829;2305500055;2305500055;442;SAN JOSE DE PENSILVANIA - AUT   [2305500055];Climática Principal;Automática con Telemetría;Activa;2017-04-24;2029;5.37263889;-75.15013889;230.8791186
3831;2319700096;2319700096;375;SAN JUAN DE LOS CHORROS - AUT   [2319700096];Limnigráfica;TEST005;En Mantenimiento;2017-12-31;55;7.69280556;-73.77405556;84.00505503
3832;2701500105;2701500105;249;EL PLAYON - AUT   [2701500105];Climática Principal;Automática con Telemetría;Suspendida;2017-01-23;2233;6.48383056;-75.34583056;181.8858354
3835;2615500122;2615500122;395;LA ESPERANZA ANDALUCIA - AUT   [2615500122];Climática Principal;Automática con Telemetría;Activa;2017-04-20;3316;5.01777778;-75.35658333;275.5602864
3838;3701500114;3701500114;354;CHINACOTA - AUT   [3701500114];Climática Principal;Automática con Telemetría;Activa;2017-07-02;2628;7.40121667;-72.550275;143.4590718
3839;2614500112;2614500112;394;BELLAVISTA - JESUS MARIA - AUT   [2614500112];Climática Principal;Automática con Telemetría;En Mantenimiento;2017-06-03;1984;5.27594444;-75.80016667;290.5100364
3844;2319500125;2319500125;358;POLIDEPORTIVO CACHIRA - AUT   [2319500125];Climática Principal;Automática con Telemetría;Activa;2017-12-13;1992;7.73719;-73.04892;118.7464808
3847;2319500137;2319500137;357;VETAS - AUT   [2319500137];Climática Principal;Automática con Telemetría;Activa;2018-08-25;3325;7.31022;-72.87683;106.288434
3848;3701500117;3701500117;368;EL PORTILLO - AUT   [3701500117];Climática Principal;Automática con Telemetría;En Mantenimiento;2017-07-03;3926;7.40122;-72.55028;143.4586893
3849;1602500110;1602500110;352;ARBOLEDAS - AUT   [1602500110];Climática Principal;Automática con Telemetría;Activa;2017-12-28;935;7.64511111;-72.79916944;132.2694946
3853;2120700146;2120700146;449;UNIVERSIDAD DE LA SABANA - AUT   [2120700146];Limnigráfica;TEST005;En Mantenimiento;2018-10-17;2553;4.85475;-74.04;231.6874318
3857;2501500120;2501500120;270;JUAN JOSE - AUT   [2501500120];Climática Principal;Automática con Telemetría;En Mantenimiento;2017-05-05;127;7.73019444;-75.85158056;246.8850374
3858;2405700149;2405700149;391;EL JUNCAL - AUT   [2405700149];Limnigráfica;TEST005;Activa;2018-04-12;329;6.79377778;-73.19863889;64.14144974
3863;2311700155;2311700155;436;PUERTO BOYACA - AUT   [2311700155];Limnigráfica;TEST005;En Mantenimiento;2018-09-19;147;5.98025833;-74.59496944;139.8295991
3864;2120700162;2120700162;451;SAN JOAQUIN - AUT   [2120700162];Limnigráfica;TEST005;En Mantenimiento;2018-03-06;614;4.63825;-74.52002778;267.0903586
3873;23085270;23085270;1997;AEROPUERTO J.M. CORDOVA - AUT [23085270];Sinóptica Principal;Automática con Telemetría;Activa;2006-11-27;2131;6.1686111;-75.42611111;202.3906831
3875;23050420;23050420;14;ARGELIA ANTIOQUIA - AUT [23050420];Pluviográfica;Automática con Telemetría;Activa;2007-10-23;1740;5.73;-75.14;202.1957088
3877;2308500068;2308500068;191;SANTUARIO - AUT [2308500068];Climática Principal;Automática con Telemetría;En Mantenimiento;2016-12-23;2162;6.13;-75.28;189.7885462
3879;27015330;27015330;1994;OLAYA HERRERA - AUT [27015330];Sinóptica Principal;Automática con Telemetría;Activa;2014-05-12;1500;6.224679;-75.588225;216.4877951
3884;25027910;25027910;1952;LA RAYA [25027910];Limnigráfica;Automática con Telemetría;Activa;1975-03-15;1600;8.34455556;-74.56122222;179.1837289
3886;35027100;35027100;456;CARAZA  - AUT [35027100];Limnigráfica;TEST005;En Mantenimiento;1970-01-15;220;4.42863889;-74.01019444;278.085592
3887;35025090;35025090;27;BOSQUE INTERVENIDO  - AUT [35025090];Climática Principal;Automática con Telemetría;En Mantenimiento;2008-07-09;2944;4.66488889;-73.84663889;250.7911367
3888;23207040;23207040;186;SAN PABLO RIO MAGDALENA  - AUT [23207040];Limnimétrica;TEST005;En Mantenimiento;1977-07-15;62;7.48033333;-73.91855556;62.91816809
3898;24010140;24010140;445;CUCUNUBA [24010140];Pluviométrica;Convencional;Suspendida;1958-01-15;2818;5.21957;-73.78229;189.3344107
3901;26247020;26247020;1107;LA COQUERA - AUT [26247020];Limnigráfica;Automática con Telemetría;Activa;1966-08-15;49;7.96;-75.2;195.0667418
3905;27037010;27037010;1105;LA ESPERANZA NECHI [27037010];Limnigráfica;Automática con Telemetría;Activa;1975-03-09;33;8.03194389;-74.78880556;166.0706465
3907;11117050;11117050;256;DABEIBA 2  - AUT [11117050];Limnigráfica;Automática con Telemetría;En Mantenimiento;1976-09-15;650;7.01027806;-76.28833333;279.2116407
3908;25027770;25027770;1941;MARRALU - AUT [25027770];Limnigráfica;Automática con Telemetría;Activa;2017-01-01;23;8.31;-75.24;223.010952
3909;23087160;23087160;9;CARAMANTA  - AUT [23087160];Limnigráfica;Automática con Telemetría;En Mantenimiento;1973-07-15;1900;6.50768306;-74.86531111;130.6051251
3922;1303500129;1303500129;276;SAHAGUN - AUT   [1303500129];Climática Principal;Automática con Telemetría;En Mantenimiento;2016-12-29;70;8.94;-75.45;289.5387832
3926;25027180;25027180;1173;SAN ANTONIO [25027180];Limnimétrica;Convencional;Activa;1967-04-15;17;9.04;-74.77;258.0232227
3936;25025240;25025240;1951;MAJAGUAL [25025240];Pluviométrica;Convencional;Activa;1974-11-15;26;8.54269444;-74.62733306;201.8797511
3951;3505500061;3505500061;281;MEDINA - AUT [3505500061];Climática Principal;Automática con Telemetría;Activa;2017-12-30;533;4.51;-73.34999722;271.5858955
3962;2319500207;2319500207;2142;SANTURBAN (EL SALADO);Meteorológica Especial;Automática sin Telemetría;Activa;2021-12-01;3395;7.33519444;-72.85897222;109.1962457
4000;26255030;26255030;206;SANTA ISABEL VALDIVIA - AUT [26255030];Agrometeorológica;Automática con Telemetría;En Mantenimiento;2004-11-22;1131;7.15722222;-75.442275;187.1701515
4013;21205660;21205660;109;MERCEDES - AUT [21205660];Climática Principal;TEST005;En Mantenimiento;1970-09-15;765;4.5791;-74.52318;273.4132831
4015;24015110;24015110;29;LA BOYERA - AUT [24015110];Climática Principal;TEST005;En Mantenimiento;1960-03-15;2610;5.30380556;-73.85175;180.2852352
4016;21206600;21206600;122;NUEVA GENERACION  - AUT [21206600];Climática Principal;TEST005;En Mantenimiento;2001-11-15;2590;4.78222222;-74.09433333;240.4805089
4017;21206960;21206960;83;IDEAM BOGOTA CENTRO- AUT [21206960];Climática Principal;Automática con Telemetría;Suspendida;2005-04-11;2646;4.6;-74.06666667;259.9850461
4023;35107040;35107040;328;GUAICARAMO  - AUT [35107040];Limnigráfica;TEST005;En Mantenimiento;1981-03-15;264;4.68909444;-73.04651944;260.2790807
4024;21205910;21205910;57;LA COSECHA - AUT [21205910];Climática Principal;TEST005;En Mantenimiento;1976-09-15;2570;4.98922;-74.00119;216.3999136
4025;21205710;21205710;89;JARDIN BOTANICO  - AUT [21205710];Climática Principal;TEST005;Activa;1974-09-15;2552;4.66933333;-74.10266667;252.9529504
4029;2501700189;2501700189;1163;URÉ [2501700189];Limnimétrica;Automática con Telemetría;En Mantenimiento;2018-10-23;200;7.91333333;-75.56616667;226.6471832
4041;3502700146;3502700146;1144;GUAYABETAL RIO NEGRO 1 - AUT [3502700146];Limnigráfica;TEST005;Suspendida;2019-06-28;997;4.227132;-73.819327;299.0570314
4058;21197080;21197080;452;BONANZA LA HACIENDA  - AUT [21197080];Limnigráfica;TEST005;En Mantenimiento;1993-08-15;1520;4.40002778;-74.36358333;287.7083411
4066;35027520;35027520;39;BOCATOMA EAAB - AUT [35027520];Limnigráfica;TEST005;Suspendida;2008-12-23;3077;4.66102778;-73.83333333;251.1668367
4089;35217030;35217030;1506;PUENTE LA CABANA [35217030];Limnigráfica;TEST005;Activa;1979-12-15;497;5.43794444;-72.45522222;219.5089372
4137;3503500062;3503500062;282;EL CALVARIO - AUT [3503500062];Climática Principal;Automática con Telemetría;En Mantenimiento;2018-04-13;2014;4.3502;-73.71152;285.4437752
4141;35057010;35057010;86;EL CABLE - AUT [35057010];Limnigráfica;TEST005;En Mantenimiento;1968-10-15;377;4.4;-73.29;284.7192113
4142;21205970;21205970;203;HACIENDA SANTA ANA [21205970];Climática Principal;TEST005;En Mantenimiento;1977-02-15;2572;5.0905;-73.88125;204.010452
4149;23067070;23067070;448;VILLETA - AUT [23067070];Limnigráfica;TEST005;En Mantenimiento;1974-08-15;878;5.00858333;-74.46711111;226.4993579
4152;35235040;35235040;1502;TRINIDAD - AUT [35235040];Climática Ordinaria;TEST005;En Mantenimiento;2016-12-15;265;5.41902778;-71.66616667;285.888191
4154;23097030;23097030;1157;PUERTO BERRIO - AUT [23097030];Limnigráfica;TEST005;Activa;1936-01-15;111;6.48513889;-74.40116667;86.18127782
4158;23195240;23195240;2;AGUACHICA - AUT [23195240];Agrometeorológica;Automática con Telemetría;Activa;2005-08-19;103;8.12341667;-73.57986111;133.1152434
4163;35167010;35167010;1601;HATO LAGUNA - AUT [35167010];Limnigráfica;Automática con Telemetría;Activa;2016-12-31;3020;5.58444444;-72.90008333;176.8956015
4167;16057030;16057030;36;LA CABANA - AUT [16057030];Limnigráfica;TEST005;En Mantenimiento;1971-10-15;1220;8.19780556;-73.31825;148.1354463
4170;3518500127;3518500127;271;GUADUALITO - AUT [3518500127];Climática Principal;Automática con Telemetría;Activa;2018-09-19;784;4.98708056;-72.8651;236.8147049
4172;26247050;26247050;41;LAS CAMELIAS - AUT [26247050];Limnigráfica;Automática con Telemetría;En Mantenimiento;1973-05-15;110;7.58252778;-75.42005556;196.5716489
4173;24035440;24035440;1103;RITACUBA BLANCO EMMA 2 - AUT [24035440];Meteorológica Especial;Automática con Telemetría;En Mantenimiento;2017-07-09;5027;6.49358333;-72.31161111;167.4745589
4175;3518700145;3518700145;251;TUA BALNEARIO - AUT [ ];Limnigráfica;TEST005;En Mantenimiento;2018-09-18;412;4.88565;-72.90088889;245.4736419
4183;26155250;26155250;145;PARAMO CONEJERAS  - AUT [26155250];Climática Ordinaria;Automática con Telemetría;En Mantenimiento;2007-12-06;4413;4.82980556;-75.37583333;293.1372385
4185;21206950;21206950;150;PARAMO GUACHENEQUE  - AUT [21206950];Climática Principal;Automática con Telemetría;En Mantenimiento;2005-07-19;2300;5.23605556;-73.52508333;189.3252685
4187;11077020;11077020;254;LA MAGDALENA - AUT [11077020];Limnigráfica;Automática con Telemetría;Activa;1972-09-15;1770;6.29836111;-76.13447222;271.4762257
4191;26155170;26155170;214;TESORITO FINCA  - AUT [26155170];Climática Ordinaria;TEST005;En Mantenimiento;1992-10-15;2325;5.03222222;-75.43833333;280.2441326
4192;35087020;35087020;1183;PAEZ;Limnimétrica;Automática con Telemetría;Activa;1975-12-15;873;5.08261111;-73.06841667;218.3873471
4194;23067020;23067020;26;COLORADOS  - AUT [23067020];Limnigráfica;TEST005;En Mantenimiento;1952-02-15;309;5.4695;-74.59338889;186.0111502
4197;25027720;25027720;1953;BARRANCONES [25027720];Limnimétrica;Convencional;En Mantenimiento;1974-01-15;32;9.13391667;-73.77280556;243.268755
4198;26217050;26217050;1132;CAÑAFISTO [26217050];Limnigráfica;Automática con Telemetría;En Mantenimiento;1978-11-15;466;6.41797222;-75.81925;234.3687796
4203;35080050;35080050;1181;PAEZ;Meteorológica Especial;Automática con Telemetría;Activa;1975-11-15;1350;5.09636111;-73.05322222;217.5656888
4205;11115020;11115020;35;CAÑASGORDAS  - AUT [11115020];Climática Ordinaria;Automática con Telemetría;En Mantenimiento;1973-07-15;1294;6.75802778;-76.02966667;251.2869438
4208;24017640;24017640;439;LA CEIBA - AUT [24017640];Limnigráfica;TEST005;Activa;1979-10-15;724;6.44888889;-73.30694444;73.43315181
4211;16035030;16035030;193;SARDINATA [16035030];Pluviométrica;TEST005;En Mantenimiento;1973-03-15;320;8.07666667;-72.80305556;164.8512261
4213;35195020;35195020;1180;TAURAMENA;Meteorológica Especial;Automática con Telemetría;Activa;1974-11-15;460;5.02725778;-72.86984167;232.5670026
4219;26155270;26155270;179;SAN ANTONIO CALDAS - AUT [26155270];Climática Ordinaria;Automática con Telemetría;En Mantenimiento;2008-07-10;3048;4.88661111;-75.42897222;291.8630405
4220;26157190;26157190;173;RIO CLARO - AUT [26157190];Limnigráfica;TEST005;En Mantenimiento;2008-12-10;2706;4.90091667;-75.45111111;292.2009013
4222;37037010;37037010;361;PASO DE LA CANOA - AUT [37037010];Limnigráfica;TEST005;En Mantenimiento;1972-11-15;374;7.03455556;-72.15261111;178.1113212
4223;11117040;11117040;305;MUTATA  - AUT [11117040];Limnigráfica;Automática con Telemetría;En Mantenimiento;1976-10-15;132;7.22944444;-76.43805556;297.3852556
4227;16015110;16015110;227;UNIVERSIDAD FRANCISO DE PAULA SANTANDER - AUT [16015110];Climática Principal;TEST005;Activa;2005-10-11;311;7.89877778;-72.48716667;176.5975072
4232;16017010;16017010;355;AGUAS CLARAS  - AUT [16017010];Limnigráfica;TEST005;En Mantenimiento;1966-06-15;70;8.23361111;-72.41722222;206.5651557
4236;1602500044;1602500044;349;GRAMALOTE - AUT   [1602500044];Climática Principal;Automática con Telemetría;Activa;2017-06-29;1214;7.91316667;-72.80302778;151.4571023
4238;16027060;16027060;350;PUERTO LEON - AUT [16027060];Limnigráfica;TEST005;En Mantenimiento;1972-10-15;47;8.35027778;-72.43472222;214.4003069
4243;23067080;23067080;158;CHARCO LARGO  - AUT [23067080];Limnigráfica;TEST005;En Mantenimiento;1974-09-15;940;5.25713889;-74.34569444;196.1007803
4244;16027280;16027280;372;ASTILLEROS - AUT [16027280];Limnigráfica;TEST005;En Mantenimiento;1992-09-15;140;8.10527778;-72.58138889;183.7258069
4245;2403000117;2403000117;1160;PM LA LAGUNA;Pluviométrica;Automática con Telemetría;En Mantenimiento;2018-09-01;2786;6.44716667;-72.49769444;149.685755
4249;16067010;16067010;356;PUERTO BARCO-GABARRA - AUT [16067010];Limnigráfica;TEST005;En Mantenimiento;1969-08-15;19;9.00361111;-72.9;247.7902838
4250;3702500113;3702500113;362;CAMPO HERMOSO - AUT   [3702500113];Climática Principal;Automática con Telemetría;En Mantenimiento;2017-01-26;1471;7.09913889;-72.30041944;162.4672049
4254;25010060;25010060;1162;URÉ [25010060];Pluviométrica;Automática con Telemetría;En Mantenimiento;2019-08-07;200;7.87113889;-75.50911083;218.8938669
4258;25027200;25027200;1104;LAS VARAS - AUT [25027200]LAS VARAS;Limnigráfica;Automática con Telemetría;Activa;1966-06-15;40;8.39;-74.56;183.5077712
4260;21227010;21227010;257;PIEDRAS  - AUT [21227010];Limnigráfica;TEST005;Activa;1972-03-15;384;4.535225;-74.88053056;292.4727327
4261;26187040;26187040;458;QUITASUENO  - AUT [26187040];Limnigráfica;Automática con Telemetría;Activa;2014-03-10;560;5.71361111;-75.54027778;238.3880412
4263;2619700161;2619700161;266;SALGAR - AUT   [2619700161];Limnigráfica;Automática con Telemetría;En Mantenimiento;2017-12-30;642;5.8808;-75.90831111;264.2962684
4267;23197400;23197400;263;ANGOSTURAS [23197400];Limnigráfica;TEST005;En Mantenimiento;1972-08-15;331;7.33527778;-73.33083333;65.18420672
4268;35027510;35027510;40;CALOSTROS BAJO - AUT  [35027510];Limnigráfica;TEST005;En Mantenimiento;2008-05-24;2943;4.6645;-73.86308333;250.9087396
4277;35160000;35160000;1606;LAS CINTAS [35160000];Pluviométrica;Automática con Telemetría;Activa;2016-12-31;3400;5.61427778;-72.86747222;176.1270287
4286;11117010;11117010;2124;ANIL EL [11117010];Limnimétrica;TEST005;Activa;1972-03-15;650;6.87388889;-76.14958333;263.8545553
4290;23105070;23105070;102;MACEO - AUT [23105070];Climática Principal;Automática con Telemetría;Activa;2005-06-18;1102;6.57163889;-74.79472222;120.8346484
4296;26180180;26180180;202;SONSON [26180180];Pluviográfica;TEST005;En Mantenimiento;1970-06-15;2383;5.71525;-75.2945;216.3833138
4297;23197700;23197700;376;MAJADAS - AUT [23197700];Limnimétrica;Automática con Telemetría;En Mantenimiento;2001-10-15;760;7.16027778;-73.09305556;78.06682353
4302;25025340;25025340;184;SAN MARCOS - AUT [25025340];Climática Principal;Automática con Telemetría;En Mantenimiento;2005-10-07;31;8.59683333;-75.14269444;238.7327023
4303;26180250;26180250;261;VALLE ALTO  - AUT [26180250];Pluviográfica;Automática con Telemetría;En Mantenimiento;1994-04-15;3311;5.35;-75.31777778;245.3954813
4304;24037190;24037190;136;SAN RAFAEL  - AUT [24037190];Limnigráfica;TEST005;Activa;1972-02-15;2500;5.80761111;-73.01380556;149.3626122
4307;27015320;27015320;13;ARAGON - AUT [27015320];Agrometeorológica;Automática con Telemetría;En Mantenimiento;2004-08-28;2633;6.78;-75.56;199.3227217
4308;25027020;25027020;18;EL BANCO - AUT [25027020];Limnimétrica;TEST005;Activa;1934-01-15;29;8.99252778;-73.96944444;228.7837292
4309;35197030;35197030;1182;LOS ESTEROS;Limnimétrica;Automática con Telemetría;Activa;1974-11-15;368;5.17969444;-72.56838889;234.460288
4310;3602700101;3602700101;330;SAN SALVADOR - AUT   [3602700101];Limnigráfica;TEST005;En Mantenimiento;2018-03-17;178;6.22768056;-71.61848333;249.4187258
4312;2125700094;2125700094;440;RECIO 1 - AUT   [2125700094];Limnigráfica;TEST005;Activa;2017-12-19;1870;4.87383333;-75.04258333;268.0725801
4314;24037030;24037030;324;EL PALO - AUT [24037030];Limnigráfica;TEST005;En Mantenimiento;1955-05-15;2600;5.68172222;-73.23113889;150.2102868
4315;3519700092;3519700092;333;MANI - AUT   [3519700092];Limnigráfica;Automática con Telemetría;En Mantenimiento;2018-03-12;180;4.81641944;-72.30865;283.842314
4317;25027050;25027050;268;MARGENTO  - AUT [25027050];Limnigráfica;Automática con Telemetría;En Mantenimiento;1966-07-15;23;8.03666694;-74.95271944;179.2490276
4319;24037490;24037490;327;PUENTE TOTUMO  - AUT [24037490];Limnimétrica;TEST005;En Mantenimiento;1995-09-15;1200;6.43797222;-72.63830556;135.7052737
4320;24037080;24037080;332;LA GRUTA  - AUT [24037080];Limnimétrica;TEST005;En Mantenimiento;1979-03-15;2500;5.56697222;-73.04672222;170.4174677
4322;2403700149;2403700149;1150;PUENTE LA RAMADA - AUT [2403700149];Limnigráfica;TEST005;Activa;2019-07-22;2305;6.5607;-72.5012;145.2731106
4323;1605700152;1605700152;373;PALO GRANDE - AUT   [1605700152];Limnigráfica;TEST005;Activa;2017-12-15;1087;8.29076111;-73.3045;158.3420042
4337;25020520;25020520;1949;BUENAVISTA - AUT [25020520];Meteorológica Especial;Automática con Telemetría;Suspendida;2014-03-10;110;8.22222222;-75.4675;235.9973778
4342;23087190;23087190;255;LA GARRUCHA - AUT [23087190];Limnigráfica;Automática con Telemetría;En Mantenimiento;1973-06-15;980;5.99836111;-74.93825;166.0242188
4343;26237040;26237040;1137;PUERTO VALDIVIA - AUT [26237040];Limnigráfica;Automática con Telemetría;Activa;1959-10-15;129;7.28711694;-75.396725;184.6624361
4344;25027270;25027270;1176;LAS FLORES [25027270];Limnigráfica;Automática con Telemetría;Activa;1968-06-15;22;8.10123611;-74.77763333;170.9372395
4345;2703700106;2703700106;264;EL RETIRO - AUT [2703700106];Limnigráfica;Automática con Telemetría;En Mantenimiento;2017-05-04;59;7.56;-74.79999722;133.8659899
4352;21206930;21206930;153;PARAMO GUERRERO  - AUT [21206930];Climática Principal;Automática con Telemetría;En Mantenimiento;2004-12-01;3237;5.08644;-74.02217;206.0519195
4353;24015380;24015380;446;CARMEN DE CARUPA  - AUT [24015380];Climática Principal;TEST005;En Mantenimiento;2010-03-31;2960;5.34819;-73.89817;175.752761
4354;21206990;21206990;216;TIBAITATA - AUT [21206990];Agrometeorológica;Automática con Telemetría;Suspendida;2004-10-27;2543;4.68863;-74.20559;252.8088065
4356;23065110;23065110;454;YACOPI  - AUT [23065110];Climática Principal;TEST005;En Mantenimiento;1974-09-15;1347;5.48121;-74.35125;173.1334959
4357;2120500135;2120500135;410;UNIVERSIDAD DE LA SABANA - AUT   [2120500135];Climática Principal;TEST005;En Mantenimiento;2018-10-17;2548;4.85414;-74.03269;231.6482241
4363;26155230;26155230;65;EMAS - AUT [26155230];Climática Principal;Automática con Telemetría;Suspendida;2004-06-10;2211;5.08525;-75.50713889;281.0521568
4364;24025030;24025030;320;LA SIERRA - AUT [24025030];Climática Principal;Automática con Telemetría;En Mantenimiento;1967-02-15;2850;5.96708;-73.16202;125.6697819
4369;23127010;23127010;285;BORBUR  - AUT [23127010];Limnigráfica;TEST005;En Mantenimiento;1975-03-15;457;5.64938889;-74.05502778;145.4710036
4370;24035380;24035380;119;NEVADO DEL COCUY - AUT [24035380];Climática Principal;Automática con Telemetría;Activa;2005-11-19;4676;6.50911;-72.31417;166.7116859
4372;23205050;23205050;390;CANELOS  - AUT [23205050];Climática Ordinaria;TEST005;En Mantenimiento;1983-09-15;750;7.88541667;-74.24097222;117.7797479
4380;23157030;23157030;19;BARRANCABERMEJA  - AUT [23157030];Limnimétrica;TEST005;En Mantenimiento;1936-06-15;75;7.06019444;-73.876;18.85136333
4381;23085260;23085260;94;LA SELVA - AUT [23085260];Agrometeorológica;Automática con Telemetría;En Mantenimiento;2004-10-11;2125;6.13191667;-75.41455556;202.9719034
4383;26197020;26197020;1108;BRASILIA [26197020];Limnigráfica;Automática con Telemetría;Activa;1970-09-15;670;5.82544444;-75.93533333;269.7193123
4384;2614500116;2614500116;411;EL JARDIN CUENCA ALTA RIO RISARALDA - AUT   [2614500116];Climática Principal;Automática con Telemetría;Activa;2017-04-29;25;5.593375;-75.79639778;269.3587525
4389;26225060;26225060;58;HACIENDA COTOVE - AUT [26225060];Agrometeorológica;Automática con Telemetría;En Mantenimiento;2004-11-25;534;6.53391667;-75.82733333;232.4415403
4404;25027750;25027750;1944;SAN MARCOS - AUT [25027750] ;Limnimétrica;Automática con Telemetría;Activa;2013-10-29;22;8.65;-75.13;242.4105604
4406;1111700231;1111700231;2126;MUTATA [1111700231];Limnigráfica;Automática con Telemetría;Activa;2023-01-25;128;7.23949167;-76.43345833;297.0016158
4407;35095110;35095110;81;HUERTA LA GRANDE [35095110];Climática Principal;TEST005;En Mantenimiento;1994-09-15;352;4.65147;-72.91547;268.9461944
4410;35035110;35035110;178;SALINAS DE UPIN  - AUT [35035110];Agrometeorológica;Automática con Telemetría;En Mantenimiento;2007-03-23;690;4.27386111;-73.58686111;294.4623636
4415;24037290;24037290;339;PUENTE CHAMEZA  - AUT [24037290];Limnigráfica;TEST005;Activa;1971-02-15;2490;5.75988889;-72.90652778;160.4766189
4416;23125140;23125140;8;AEROPUERTO FURATENA  - AUT [23125140];Climática Ordinaria;TEST005;Activa;1991-05-15;1250;5.52083333;-74.18241667;162.8026857
4418;24017600;24017600;292;MONIQUIRA  - AUT [24017600];Limnigráfica;TEST005;En Mantenimiento;1974-04-15;1720;5.87813889;-73.57025;118.4653079
4420;35097080;35097080;1101;CEIBAL EL [35097080];Limnimétrica;TEST005;En Mantenimiento;1981-09-15;700;5.08138889;-73.03416667;219.8734256
4426;35197020;35197020;334;VADO HONDO  - AUT [35197020];Limnigráfica;TEST005;En Mantenimiento;1973-03-15;2831;5.50680556;-72.75480556;192.9904168
4427;3507500133;3507500133;340;TEATINOS - AUT   [3507500133];Climática Principal;Automática con Telemetría;En Mantenimiento;2017-10-11;3352;5.44166;-73.55215;166.4097539
4434;16035010;16035010;217;TIBU [16035010];Pluviométrica;TEST005;En Mantenimiento;1940-01-15;50;8.63833333;-72.72666667;220.3578631
4435;16040050;16040050;383;LA MARIA - AUT [16040050];Climática Principal;TEST005;Activa;1985-02-15;1927;7.93485;-73.21358;126.2122763
4437;16015130;16015130;4;ALCALDIA DE HERRAN  - AUT [16015130];Climática Principal;Automática con Telemetría;En Mantenimiento;2005-08-19;240;7.50672222;-72.48536111;154.5554698
4440;23107020;23107020;374;LA BODEGA - AUT [23107020];Limnigráfica;TEST005;En Mantenimiento;1974-11-15;149;6.73219444;-74.40694444;74.55941375
4441;23190130;23190130;378;TONA  - AUT [23190130];Climática Principal;TEST005;Activa;1958-05-15;1910;7.19611111;-72.97055556;92.14380911
4442;24030680;24030680;367;EL PARAMO - AUT [24030680];Climática Principal;TEST005;Activa;1974-06-15;3238;6.81078;-72.55605;133.9204233
4443;37045010;37045010;192;SARAVENA  - AUT [37045010];Climática Ordinaria;TEST005;Suspendida;1971-08-15;148;6.94638889;-71.89055556;206.7184323
4447;26155150;26155150;370;LAS BRISAS - AUT [26155150];Climática Principal;TEST005;Activa;1981-10-15;4133;4.93452778;-75.35038889;282.2709698
4449;21237020;21237020;50;ARRANCAPLUMAS  - AUT [21237020];Limnigráfica;TEST005;En Mantenimiento;1934-01-15;222;5.20241667;-74.72761111;219.0344386
4451;21257090;21257090;199;LA ESMERALDA - AUT [21257090];Limnigráfica;TEST005;En Mantenimiento;1986-10-15;2625;4.89077778;-74.85313889;255.9425824
4452;21257100;21257100;429;LA NUEVA - AUT [21257100];Limnigráfica;TEST005;Activa;1977-01-15;570;4.79508333;-74.97194444;271.5626892
4454;23190700;23190700;139;PIEDECUESTA GRANJA [23190700];Pluviográfica;TEST005;Activa;1970-07-15;951;6.99333;-73.06778;77.0028549
4464;23067040;23067040;443;PUERTO LIBRE  - AUT [23067040];Limnigráfica;TEST005;Activa;1974-09-15;1784;5.75922222;-74.63175;161.4369017
4465;21195120;21195120;88;ITA VALSALICE  - AUT [21195120];Climática Principal;TEST005;En Mantenimiento;1989-02-15;1421;4.39292;-74.39272;289.2352118
4466;21205012;21205012;228;UNIVERSIDAD NACIONAL  - AUT [21205012];Climática Principal;TEST005;En Mantenimiento;2004-08-19;2556;4.63723;-74.08892;256.2423624
4467;21205940;21205940;235;VILLA INES  - AUT [21205940];Climática Principal;TEST005;En Mantenimiento;1977-02-15;2590;4.83211;-74.38056;242.02346
4468;21206920;21206920;236;VILLA TERESA - AUT [21206920];Climática Principal;Automática con Telemetría;En Mantenimiento;2005-07-19;3624;4.35;-74.15;288.6320456
4469;11110110;11110110;2129;BOQUERON DE TOYO [11110110];Pluviográfica;TEST005;Activa;1983-05-15;20;6.69944444;-75.9775;246.1442588
4472;23067060;23067060;460;TOBIA  - AUT [23067060];Limnigráfica;TEST005;En Mantenimiento;1986-12-15;620;5.12530556;-74.44705556;213.6335853
4473;35027500;35027500;170;QUEBRADA RINCON  - AUT [35027500];Limnigráfica;TEST005;En Mantenimiento;2008-07-08;2943;4.66494444;-73.85738889;250.8323246
4474;35035130;35035130;152;PARAMO CHINGAZA  - AUT [35035130];Climática Principal;TEST005;En Mantenimiento;2004-11-24;3863;4.71366667;-73.80325;245.2682477
4477;2306500106;2306500106;453;ALTO DEL TRIGO -   [2306500106];Climática Principal;Automática con Telemetría;En Mantenimiento;2018-03-26;1742;5.00217;-74.53667;229.9232694
4482;24027070;24027070;54;MERIDA - AUT [24027070];Limnigráfica;TEST005;Activa;1979-11-15;1201;6.44472222;-73.15833333;85.81469488
4483;35027190;35027190;2132;GUACAPATE [35027190];Limnigráfica;Convencional;Activa;1980-05-15;1240;4.31430556;-73.87494444;289.6275474
4485;16055120;16055120;3;AGUAS DE LA VIRGEN  - AUT [16055120];Climática Principal;Automática con Telemetría;En Mantenimiento;2006-08-09;1679;8.22769;-73.3975;148.6563806
4486;25025330;25025330;51;COLEGIO AGROPECUARIO PAILITAS  - AUT [25025330];Climática Principal;TEST005;En Mantenimiento;1987-09-15;50;8.95422222;-73.63008333;223.8781974
4488;27015310;27015310;110;METROMEDELLIN - AUT [27015310];Climática Principal;Automática con Telemetría;En Mantenimiento;2005-07-01;1440;6.32975;-75.55211111;208.754683
4490;21257120;21257120;160;PUENTE GATO NEGRO  - AUT [21257120];Limnigráfica;TEST005;En Mantenimiento;1986-12-15;1135;4.94019444;-75.08980556;264.7367155
4491;26217010;26217010;181;LA GALERA - AUT [26217010];Limnigráfica;Automática con Telemetría;En Mantenimiento;1970-11-15;538;6.55497222;-75.86419444;236.0178601
4492;2502700153;2502700153;277;PLANTA ECOPETROL - AUT   [2502700153];Limnigráfica;Automática con Telemetría;En Mantenimiento;2018-10-12;14;9.1751;-74.73008889;269.8035571
